[{"id":"0","name":"Alings\u00e5s L\u00e5s & Larmservice AB","license":"Licensnummer: 158","street":"Kungsgatan 47","zipcode":"441 31 ALINGS\u00c5S","city":"ALINGS\u00c5S","phone":"TEL:0322-132 40","email":"roy.p@alas.se","website":"www.alas.se","latlng":"57.929412300000024,12.54155030000004","lat":"57.929412300000024","lng":"12.54155030000004"},{"id":"1","name":"L\u00e5sspecialisten AB","license":"Licensnummer: 005","street":"Datav\u00e4gen 10B","zipcode":"436 32 ASKIM","city":"ASKIM","phone":"TEL:031-775 19 90","email":"info@lasspecialisten.com","website":"www.lasspecialisten.com","latlng":"57.61584410000001,11.945607999999993","lat":"57.61584410000001","lng":"11.945607999999993"},{"id":"2","name":"Bergs L\u00e5sverkstad AB","license":"Licensnummer: 076","street":"R\u00e5gsvedsslingan 10","zipcode":"124 65 BANDHAGEN","city":"BANDHAGEN","phone":"TEL:08-86 30 30","email":"info@bergslas.se","website":"www.bergslas.se","latlng":"59.25740220000001,18.027874099999963","lat":"59.25740220000001","lng":"18.027874099999963"},{"id":"3","name":"L\u00e5ssmeden AB","license":"Licensnummer: 045","street":"Kungsgatan 20","zipcode":"961 31 BODEN","city":"BODEN","phone":"TEL:0921-108 40","email":"info@lassmedboden.com","website":"www.lassmedboden.com","latlng":"65.82736970000002,21.70141280000007","lat":"65.82736970000002","lng":"21.70141280000007"},{"id":"4","name":"Bor\u00e5s L\u00e5s & S\u00e4kerhet AB","license":"Licensnummer: 490","street":"Skaraborgsv\u00e4gen 40","zipcode":"506 30 BOR\u00c5S","city":"BOR\u00c5S","phone":"TEL:033-290 290","email":"boras@lasochsakerhet.se ","website":"www.lasochsakerhet.se","latlng":"57.73137930000002,12.938816699999961","lat":"57.73137930000002","lng":"12.938816699999961"},{"id":"5","name":"Direct Larm & L\u00e5s AB","license":"Licensnummer: 123","street":"\u00c5sboholmsgatan 6","zipcode":"504 51 BOR\u00c5S","city":"BOR\u00c5S","phone":"TEL:033-10 25 00","email":"kari@directlarm.se","website":"www.directlarm.se","latlng":"57.71470460000001,12.946445799999992","lat":"57.71470460000001","lng":"12.946445799999992"},{"id":"6","name":"L\u00e5sTeam AB","license":"Licensnummer: 489","street":"Katrinedalsgatan 19","zipcode":"504 51 BOR\u00c5S","city":"BOR\u00c5S","phone":"TEL:033-108 408","email":"boras@lasteam.se","website":"www.lasteam.se","latlng":"57.71200079999998,12.939711200000033","lat":"57.71200079999998","lng":"12.939711200000033"},{"id":"7","name":"Alviks L\u00e5s AB","license":"Licensnummer: 290","street":"Gustavslundsv\u00e4gen 169","zipcode":"167 51 BROMMA","city":"BROMMA","phone":"TEL:08-25 22 00","email":"ledning@alvikslas.se","website":"www.alvikslas.se","latlng":"59.33278319999998,17.978176599999983","lat":"59.33278319999998","lng":"17.978176599999983"},{"id":"8","name":"Great Security Bromma AB","license":"Licensnummer: 035","street":"Abrahamsbergsv\u00e4gen 2","zipcode":"168 31 BROMMA","city":"BROMMA","phone":"TEL:08-25 00 42","email":"kund@brommalas.se","website":"www.brommalas.se","latlng":"59.33705110000002,17.95239449999997","lat":"59.33705110000002","lng":"17.95239449999997"},{"id":"9","name":"T\u00e4by Danderyds L\u00e5s AB (filial)","license":"Licensnummer: 259","street":"Enebybergsv\u00e4gen 16","zipcode":"182 36 DANDERYD","city":"DANDERYD","phone":"TEL:08-755 04 01","email":"info@tdlas.se","website":"www.tabylas.se","latlng":"59.413454699999996,18.034998200000018","lat":"59.413454699999996","lng":"18.034998200000018"},{"id":"10","name":"Optimera Svenska AB \/Eksj\u00f6","license":"Licensnummer: 465","street":"Tuv\u00e4ngsgatan 2","zipcode":"572 23 EKSJ\u00d6","city":"EKSJ\u00d6","phone":"TEL:0381-383 65","email":"las.eksjo@optimera.se","website":"www.optimera.se","latlng":"57.65811850000001,14.962856399999964","lat":"57.65811850000001","lng":"14.962856399999964"},{"id":"11","name":"Certego AB (filial)","license":"Licensnummer: 047","street":"\u00c5gatan 6","zipcode":"745 35 ENK\u00d6PING","city":"ENK\u00d6PING","phone":"TEL:0171-826 20","email":"info.enkoping@certego.se","website":"www.certego.se","latlng":"59.63035790000003,17.081857600000035","lat":"59.63035790000003","lng":"17.081857600000035"},{"id":"12","name":"Certego AB (filial)","license":"Licensnummer: 100","street":"Kungsgatan 67","zipcode":"632 21 ESKILSTUNA","city":"ESKILSTUNA","phone":"TEL:016-10 88 60","email":"info.eskilstuna@certego.se","website":"www.certego.se","latlng":"59.377929100000024,16.49674600000003","lat":"59.377929100000024","lng":"16.49674600000003"},{"id":"13","name":"L\u00e5sm\u00e4starna i E-tuna AB","license":"Licensnummer: 186","street":"Kungsgatan 36","zipcode":"632 20 ESKILSTUNA","city":"ESKILSTUNA","phone":"TEL:070-335 95 65","email":"nyckelpersson@telia.com","website":"www.lasmastarna.n.nu","latlng":"59.37250210000001,16.508744100000058","lat":"59.37250210000001","lng":"16.508744100000058"},{"id":"14","name":"Great Security Sverige AB (filial)","license":"Licensnummer: 536","street":"Smidesv\u00e4gen 9","zipcode":"311 36 FALKENBERG","city":"FALKENBERG","phone":"TEL:0346-10144","email":"jorgen.stromdahl@greatsecurity.se","website":"www.greatsecurity.se","latlng":"56.91438390000001,12.499273300000027","lat":"56.91438390000001","lng":"12.499273300000027"},{"id":"15","name":"Skrea L\u00e5s & Smide AB","license":"Licensnummer: 644","street":"Oktanv\u00e4gen 1","zipcode":"311 35 FALKENBERG","city":"FALKENBERG","phone":"TEL:0346-82000","email":"info@skrealas.se","website":"www.skrealas.se","latlng":"56.90814060000001,12.46401590000005","lat":"56.90814060000001","lng":"12.46401590000005"},{"id":"16","name":"Vadsbol\u00e5s AB (filial)","license":"Licensnummer: 134:4","street":"Storgatan 15","zipcode":"521 43 FALK\u00d6PING","city":"FALK\u00d6PING","phone":"TEL:0515-71 16 15","email":"info@vadsbolas.se","website":"www.vadsbolas.se","latlng":"58.161929000000015,13.550612600000022","lat":"58.161929000000015","lng":"13.550612600000022"},{"id":"17","name":"Farsta L\u00e5s AB","license":"Licensnummer: 037","street":"Pepparv\u00e4gen 3","zipcode":"123 56 FARSTA","city":"FARSTA","phone":"TEL:08-604 50 50","email":"info@farstalas.se","website":"www.farstalas.se","latlng":"59.2574723,18.081486600000062","lat":"59.2574723","lng":"18.081486600000062"},{"id":"18","name":"Nyckelkedjan, AB (filial)","license":"Licensnummer: 032:1","street":"Vallongatan 8","zipcode":"612 30 FINSP\u00c5NG","city":"FINSP\u00c5NG","phone":"TEL:010-16 36 837","email":"info@nyckelkedjan.se","website":"www.nyckelkedjan.se","latlng":"58.70796360000001,15.772935299999972","lat":"58.70796360000001","lng":"15.772935299999972"},{"id":"19","name":"Certego AB (filial)","license":"Licensnummer: 068:3","street":"S\u00f6dra Kungsgatan 10","zipcode":"642 35 FLEN","city":"FLEN","phone":"TEL:0157-109 90","email":"info.flen@certego.se","website":"www.certego.se","latlng":"59.0566584,16.59510249999994","lat":"59.0566584","lng":"16.59510249999994"},{"id":"20","name":"Great Security Mekanik Stockholm AB (filial)","license":"Licensnummer: 132:3","street":"V\u00e4stra Storgatan 5","zipcode":"646 31 GNESTA","city":"GNESTA","phone":"TEL:0158-123 70","email":"gnesta@punctumlas.se","website":"www.punctumlas.se","latlng":"59.048089999999995,17.30999339999994","lat":"59.048089999999995","lng":"17.30999339999994"},{"id":"21","name":"L\u00e5s Larmteknik V\u00e4rmd\u00f6 AB","license":"Licensnummer: 523","street":"M\u00f6rtn\u00e4s Hagv\u00e4g 1","zipcode":"134 44 GUSTAVSBERG","city":"GUSTAVSBERG","phone":"TEL:08-570 105 55","email":"mail@laslarmteknik.se","website":"www.laslarmteknik.se","latlng":"59.3145963,18.430038500000023","lat":"59.3145963","lng":"18.430038500000023"},{"id":"22","name":"L\u00e5sab L\u00e5s- & Larmservice AB","license":"Licensnummer: 199","street":"Per H\u00f6gstr\u00f6msgatan 16 A","zipcode":"982 31 G\u00c4LLIVARE","city":"G\u00c4LLIVARE","phone":"TEL:0970-155 90","email":"mikael@lasab.se","website":"www.lasab.se","latlng":"67.1370778,20.660016100000007","lat":"67.1370778","lng":"20.660016100000007"},{"id":"23","name":"L\u00e5s & Nyckel i G\u00e4vle AB","license":"Licensnummer: 202","street":"Str\u00f6mbrov\u00e4gen 31","zipcode":"803 09 G\u00c4VLE","city":"G\u00c4VLE","phone":"TEL:026-51 74 01","email":"las@nyckel.nu","website":"www.nyckel.nu","latlng":"60.676506300000014,17.14330229999996","lat":"60.676506300000014","lng":"17.14330229999996"},{"id":"24","name":"L\u00e5sCity i G\u00e4vle AB","license":"Licensnummer: 601","street":"S\u00f6dra Kungsgatan 34","zipcode":"802 52 G\u00c4VLE","city":"G\u00c4VLE","phone":"TEL:026-65 15 50","email":"info@lascity.se","website":"www.lascity.se","latlng":"60.66914339999998,17.149334599999975","lat":"60.66914339999998","lng":"17.149334599999975"},{"id":"25","name":"L\u00e5stj\u00e4nst Alarm AB","license":"Licensnummer: 048","street":"Apelgatan 10","zipcode":"802 57 G\u00c4VLE","city":"G\u00c4VLE","phone":"TEL:026-62 18 30","email":"anders@lastjanst-alarm.se","website":"www.lastjanst-alarm.se","latlng":"60.65989500000001,17.165856500000018","lat":"60.65989500000001","lng":"17.165856500000018"},{"id":"26","name":"Certego AB (filial)","license":"Licensnummer: 178","street":"Olof Asklunds Gata 11","zipcode":"421 30 G\u00d6TEBORG","city":"G\u00d6TEBORG","phone":"TEL:031-49 85 00","email":"info.goteborg@certego.se","website":"www.certego.se","latlng":"57.663694199999995,11.938774299999977","lat":"57.663694199999995","lng":"11.938774299999977"},{"id":"27","name":"G\u00f6teborgs L\u00e5s & Nyckelverkstad AB","license":"Licensnummer: 004","street":"\u00c5n\u00e4sv\u00e4gen 6","zipcode":"416 67 G\u00d6TEBORG","city":"G\u00d6TEBORG","phone":"TEL:031-19 03 19","email":"info@gbglas.se","website":"www.gbglas.se","latlng":"57.71633199999997,12.00375639999993","lat":"57.71633199999997","lng":"12.00375639999993"},{"id":"28","name":"L\u00e5fa, AB","license":"Licensnummer: 272","street":"Kustroddaregatan 2","zipcode":"414 51 G\u00d6TEBORG","city":"G\u00d6TEBORG","phone":"TEL:031-42 42 42","email":"info@lafalas.se","website":"www.lafalas.se","latlng":"57.6906192,11.915527500000053","lat":"57.6906192","lng":"11.915527500000053"},{"id":"29","name":"L\u00e5set i Centrum HJK AB","license":"Licensnummer: 234","street":"Stora Badhusgatan 32","zipcode":"411 19 G\u00d6TEBORG","city":"G\u00d6TEBORG","phone":"TEL:031-13 70 01","email":"bestallning@lasetgbg.se","website":"www.lasetgbg.se","latlng":"57.703208899999986,11.955849100000023","lat":"57.703208899999986","lng":"11.955849100000023"},{"id":"30","name":"L\u00e5sinv\u00e4st Svenska AB","license":"Licensnummer: 328:1","street":"Friggagatan 7","zipcode":"411 01 G\u00d6TEBORG","city":"G\u00d6TEBORG","phone":"TEL:031-80 24 24","email":"info@lasinvast.se","website":"www.lasinvast.se","latlng":"57.709698100000026,11.98574020000001","lat":"57.709698100000026","lng":"11.98574020000001"},{"id":"31","name":"L\u00e5ssmeden S Alexandersson AB","license":"Licensnummer: 140","street":"Byfogdegatan 3","zipcode":"415 05 G\u00d6TEBORG","city":"G\u00d6TEBORG","phone":"TEL:031-337 55 60","email":"info@lassmeden-sa.se","website":"www.lassmeden-sa.se","latlng":"57.726348599999994,12.009226200000057","lat":"57.726348599999994","lng":"12.009226200000057"},{"id":"32","name":"Martin Mattson & Co Eftr AB","license":"Licensnummer: 008","street":"Kyrkogatan 24","zipcode":"411 15 G\u00d6TEBORG","city":"G\u00d6TEBORG","phone":"TEL:031-13 20 46","email":"janne@martinmattsson.com","website":"www.martinmattsson.com","latlng":"57.704796699999996,11.964840699999968","lat":"57.704796699999996","lng":"11.964840699999968"},{"id":"33","name":"Nokas L\u00e5steknik i G\u00f6teborg AB","license":"Licensnummer: 159","street":"F\u00f6rsta L\u00e5nggatan 18","zipcode":"413 28 G\u00d6TEBORG","city":"G\u00d6TEBORG","phone":"TEL:031 - 380 69 00","email":"lasteknik@nokas.se","website":"www.nokas.se","latlng":"57.69962540000001,11.948191400000042","lat":"57.69962540000001","lng":"11.948191400000042"},{"id":"34","name":"SafeTeam i Sverige AB","license":"Licensnummer: 556336-1681","street":"Virvelvindsgatan 24","zipcode":"417 14 G\u00d6TEBORG","city":"G\u00d6TEBORG","phone":"TEL:031-80 24 80","email":"info@safeteam.se","website":"www.safeteam.se","latlng":"57.71852760000001,11.932981400000017","lat":"57.71852760000001","lng":"11.932981400000017"},{"id":"35","name":"SafeTeam i Sverige AB (filial)","license":"Licensnummer: 002:8","street":"Holl\u00e4ndarplatsen 8","zipcode":"415 01 G\u00d6TEBORG","city":"G\u00d6TEBORG","phone":"TEL:031-84 33 89","email":"gamlestaden@safeteam.se","website":"www.safeteam.se","latlng":"57.729755200000014,12.010797899999943","lat":"57.729755200000014","lng":"12.010797899999943"},{"id":"36","name":"S\u00f6dra V\u00e4gens L\u00e5sservice AB","license":"Licensnummer: 009","street":"M\u00f6lndalsv\u00e4gen 21-23","zipcode":"400 20 G\u00d6TEBORG","city":"G\u00d6TEBORG","phone":"TEL:031-83 20 25","email":"svl.ab@sv-las.se","website":"www.sodravagenslas.se","latlng":"57.6893571,11.994064299999991","lat":"57.6893571","lng":"11.994064299999991"},{"id":"37","name":"Halmstad L\u00e5sservice AB","license":"Licensnummer: 238","street":"Brogatan 40-42","zipcode":"302 38 HALMSTAD","city":"HALMSTAD","phone":"TEL:035-14 42 50","email":"info@halmstad-lasservice.se","website":"www.halmstad-lasservice.se","latlng":"56.67474299999999,12.851359300000013","lat":"56.67474299999999","lng":"12.851359300000013"},{"id":"38","name":"L\u00e5s & Larmspecialisten AT AB","license":"Licensnummer: 221","street":"Norra V\u00e4gen 8","zipcode":"302 31 HALMSTAD","city":"HALMSTAD","phone":"TEL:035-21 13 51","email":"info@las-larm.com","website":"www.las-larm.com","latlng":"56.6798595,12.85806720000005","lat":"56.6798595","lng":"12.85806720000005"},{"id":"39","name":"Brandbergens L\u00e5sh\u00f6rna AB","license":"Licensnummer: 309","street":"Tr\u00e4ffgatan 1","zipcode":"136 44 HANDEN","city":"HANDEN","phone":"TEL:08-777 11 11","email":"info@lashornan.se","website":"www.lashornan.se","latlng":"59.17546160000001,18.162295299999982","lat":"59.17546160000001","lng":"18.162295299999982"},{"id":"40","name":"Haninge L\u00e5s AB","license":"Licensnummer: 152","street":"Sleipnerv\u00e4gen 20","zipcode":"136 42 HANINGE","city":"HANINGE","phone":"TEL:08-777 55 60","email":"info@haningelas.se","website":"www.haningelas.se","latlng":"59.16396000000002,18.14085990000001","lat":"59.16396000000002","lng":"18.14085990000001"},{"id":"41","name":"Gr\u00e4nsl\u00e5s Service AB","license":"Licensnummer: 165","street":"Storgatan 81","zipcode":"953 31 HAPARANDA","city":"HAPARANDA","phone":"TEL:0922-132 30","email":"granslas@telia.com","website":"","latlng":"65.8372149,24.137950199999977","lat":"65.8372149","lng":"24.137950199999977"},{"id":"42","name":"Gr\u00e4nsl\u00e5s Service AB","license":"Licensnummer: Gr\u00e4nsl\u00e5s Service AB","street":"Storgatan 81","zipcode":"953 31 HAPARANDA","city":"HAPARANDA","phone":"TEL:0922-132 30","email":"granslas@telia.com","website":"","latlng":"65.8372149,24.137950199999977","lat":"65.8372149","lng":"24.137950199999977"},{"id":"43","name":"L\u00e5s & Trygghet AB","license":"Licensnummer: 575","street":"Norra Stenbocksgatan 15","zipcode":"254 44 HELSINGBORG","city":"HELSINGBORG","phone":"TEL:042-26 01 34","email":"dennis@las-trygghet.se","website":"www.las-trygghet.se","latlng":"56.05789530000001,12.69798209999999","lat":"56.05789530000001","lng":"12.69798209999999"},{"id":"44","name":"Nokas L\u00e5s-Aktuellt AB (Filial)","license":"Licensnummer: 176:1","street":"Rundg\u00e5ngen 30","zipcode":"254 52 HELSINGBORG","city":"HELSINGBORG","phone":"TEL:042-20 10 35","email":"info@lasmekano.se","website":"www.nokas.se","latlng":"56.063842599999994,12.7095415","lat":"56.063842599999994","lng":"12.7095415"},{"id":"45","name":"\u00d6bergs L\u00e5s & Nycklar Eftr KB","license":"Licensnummer: 144","street":"Gasverksgatan 25","zipcode":"252 68 HELSINGBORG","city":"HELSINGBORG","phone":"TEL:042-21 40 54","email":"info@obergs.com","website":"www.obergs.com","latlng":"56.04120529999997,12.702750199999969","lat":"56.04120529999997","lng":"12.702750199999969"},{"id":"46","name":"L\u00e5s-Arne Malmstr\u00f6m AB","license":"Licensnummer: 039","street":"Kvarnbergsplan 8","zipcode":"141 45 HUDDINGE","city":"HUDDINGE","phone":"TEL:08-711 62 00","email":"info@las-arne.se","website":" https:\/\/lasarne.secwise.com","latlng":"59.24053969999998,17.995328599999993","lat":"59.24053969999998","lng":"17.995328599999993"},{"id":"47","name":"Aspuddens L\u00e5s - L\u00e5stj\u00e4nst HB","license":"Licensnummer: 074","street":"St\u00f6rtloppsv\u00e4gen 21","zipcode":"129 47 H\u00c4GERSTEN","city":"H\u00c4GERSTEN","phone":"TEL:08-97 10 00","email":"aspuddenslastjanst@telia.com","website":"www.lastjanst.com","latlng":"59.29295099999999,17.967451600000004","lat":"59.29295099999999","lng":"17.967451600000004"},{"id":"48","name":"Bysmeden L\u00e5s AB","license":"Licensnummer: 036","street":"Elektrav\u00e4gen 22","zipcode":"126 30 H\u00c4GERSTEN","city":"H\u00c4GERSTEN","phone":"TEL:08-681 78 00","email":"info@bysmeden.se","website":"www.bysmeden.se","latlng":"59.296337900000026,18.013323899999932","lat":"59.296337900000026","lng":"18.013323899999932"},{"id":"49","name":"Certego AB (filial)","license":"Licensnummer: 068:8","street":"V\u00e4stberga All\u00e9 5","zipcode":"126 30 H\u00c4GERSTEN","city":"H\u00c4GERSTEN","phone":"TEL:08-588 155 00","email":"info.stockholm@certego.se","website":"www.certego.se","latlng":"59.2988003,18.014216900000065","lat":"59.2988003","lng":"18.014216900000065"},{"id":"50","name":"V\u00e4stberga L\u00e5s AB","license":"Licensnummer: 291","street":"Aprilgatan 12","zipcode":"126 36 H\u00c4GERSTEN","city":"H\u00c4GERSTEN","phone":"TEL:08-744 46 49","email":"info@vastbergalas.se","website":"www.vastbergalas.se","latlng":"59.30317019999998,18.007227100000023","lat":"59.30317019999998","lng":"18.007227100000023"},{"id":"51","name":"Nylunds L\u00e5s AB","license":"Licensnummer: 351","street":"K\u00f6pmangatan 10","zipcode":"871 30 H\u00c4RN\u00d6SAND","city":"H\u00c4RN\u00d6SAND","phone":"TEL:0611-129 01","email":"info@nylundslas.se","website":"www.nylundslas.se","latlng":"62.63376070000002,17.939630699999952","lat":"62.63376070000002","lng":"17.939630699999952"},{"id":"52","name":"V\u00e4llingby L\u00e5sservice AB","license":"Licensnummer: 044","street":"H\u00e4sselby Torg 2","zipcode":"165 55 H\u00c4SSELBY","city":"H\u00c4SSELBY","phone":"TEL:08-89 79 30","email":"info@vallingbylas.se","website":"www.vallingbylas.se","latlng":"59.36653370000001,17.84411309999996","lat":"59.36653370000001","lng":"17.84411309999996"},{"id":"53","name":"H\u00e4ssleholms L\u00e5ssmed AB","license":"Licensnummer: 184","street":"Majorsgatan 3","zipcode":"281 33 H\u00c4SSLEHOLM","city":"H\u00c4SSLEHOLM","phone":"TEL:0451-38 30 50","email":"catarina@hlmlassmed.se ","website":"www.hlmlassmed.se","latlng":"56.153783199999985,13.759781599999997","lat":"56.153783199999985","lng":"13.759781599999997"},{"id":"54","name":"Allans L\u00e5s & Larm AB","license":"Licensnummer: 431","street":"Nygatan 60","zipcode":"242 33 H\u00d6RBY","city":"H\u00d6RBY","phone":"TEL:0415-103 03","email":"info@allanslas.se","website":"www.allanslas.se","latlng":"55.84774229999998,13.658644399999957","lat":"55.84774229999998","lng":"13.658644399999957"},{"id":"55","name":"Sickla L\u00e5steknik AB","license":"Licensnummer: 533","street":"Bolidenv\u00e4gen 8","zipcode":"121 63 JOHANNESHOV","city":"JOHANNESHOV","phone":"TEL:08-718 00 53","email":"krister.norrman@sicklalasteknik.","website":"www.sicklalasteknik.se","latlng":"59.295019500000016,18.070501700000023","lat":"59.295019500000016","lng":"18.070501700000023"},{"id":"56","name":"J\u00e4rf\u00e4lla L\u00e5sservice, AB","license":"Licensnummer: 040","street":"Girov\u00e4gen 11","zipcode":"175 62 J\u00c4RF\u00c4LLA","city":"J\u00c4RF\u00c4LLA","phone":"TEL:08-36 77 95","email":"info@jarfallalasservice.se","website":"www.jarfallalasservice.se","latlng":"59.40821760000001,17.848280299999942","lat":"59.40821760000001","lng":"17.848280299999942"},{"id":"57","name":"Norrl\u00e5s AB","license":"Licensnummer: 363","street":"Allmogeplatsen 16","zipcode":"177 30 J\u00c4RF\u00c4LLA","city":"J\u00c4RF\u00c4LLA","phone":"TEL:08-580 190 09","email":"info@norrlas.se","website":"www.norrlas.se","latlng":"59.422593600000006,17.836287999999968","lat":"59.422593600000006","lng":"17.836287999999968"},{"id":"58","name":"Yxhage L\u00e5s & Europalarm AB","license":"Licensnummer: 192","street":"\u00d6 Storgatan 41","zipcode":"550 02 J\u00d6NK\u00d6PING","city":"J\u00d6NK\u00d6PING","phone":"TEL:036-12 20 08","email":"www.yxhage.se","website":"mats.yxhage@yxhage.se","latlng":"57.78184519999998,14.178064500000005","lat":"57.78184519999998","lng":"14.178064500000005"},{"id":"59","name":"Kalmar L\u00e5sservice AB","license":"Licensnummer: 299","street":"Fiskaregatan 20","zipcode":"392 32 KALMAR","city":"KALMAR","phone":"TEL:0480-101 53","email":"kalmarlas@kalmarlas.se","website":"www.kalmarlas.se","latlng":"56.6644877,16.362377100000003","lat":"56.6644877","lng":"16.362377100000003"},{"id":"60","name":"WB L\u00e5sservice AB","license":"Licensnummer: 510","street":"Tr\u00e5ngsundsv\u00e4gen 2","zipcode":"392 39 KALMAR","city":"KALMAR","phone":"TEL:0480-49 09 09","email":"wblasservice@telia.com","website":"www.wblas.se","latlng":"56.67614819999999,16.321822099999963","lat":"56.67614819999999","lng":"16.321822099999963"},{"id":"61","name":"Blekinge L\u00e5s & Larmteknik AB","license":"Licensnummer: 298","street":"Str\u00f6mmav\u00e4gen 1A","zipcode":"374 32 KARLSHAMN","city":"KARLSHAMN","phone":"TEL:0454-311 66","email":"info@blekingelas.se","website":"www.blekingelas.se","latlng":"56.19003919999999,14.849149300000022","lat":"56.19003919999999","lng":"14.849149300000022"},{"id":"62","name":"Ekbergs L\u00e5sservice eftr AB","license":"Licensnummer: 463","street":"Bergsmansgatan 19","zipcode":"691 31 KARLSKOGA","city":"KARLSKOGA","phone":"TEL:0586-77 11 99","email":"ekbergslas@telia.com","website":"www.ekbergslas.se","latlng":"59.32771630000002,14.522412799999984","lat":"59.32771630000002","lng":"14.522412799999984"},{"id":"63","name":"Creab S\u00e4kerhet AB","license":"Licensnummer: 613","street":"\u00d6landsgatan 5","zipcode":"371 33  KARLSKRONA","city":"KARLSKRONA","phone":"TEL:0771 - 124 124","email":"butiken@creab.se","website":"www.creab.se","latlng":"56.1645805,15.592057299999965","lat":"56.1645805","lng":"15.592057299999965"},{"id":"64","name":"Karlskrona L\u00e5sservice AB","license":"Licensnummer: 336","street":"J\u00e4rnv\u00e4gstorget 15","zipcode":"371 34 KARLSKRONA","city":"KARLSKRONA","phone":"TEL:0455-255 40","email":"sven@kna-las.nu","website":"www.kna-las.nu","latlng":"56.16566830000001,15.582129000000009","lat":"56.16566830000001","lng":"15.582129000000009"},{"id":"65","name":"Certego AB (filial)","license":"Licensnummer: 068:9","street":"Ramgatan 7","zipcode":"650 02 KARLSTAD","city":"KARLSTAD","phone":"TEL:054-19 55 50","email":"info.karlstad@certego.se","website":"www.certego.se","latlng":"59.38807320000001,13.480982400000016","lat":"59.38807320000001","lng":"13.480982400000016"},{"id":"66","name":"Certego AB (filial)","license":"Licensnummer: 068:4","street":"Fredsgatan 44","zipcode":"641 31 KATRINEHOLM","city":"KATRINEHOLM","phone":"TEL:0150-66 98 50","email":"info.katrineholm@certego.se","website":"www.certego.se","latlng":"58.99373920000002,16.210511099999962","lat":"58.99373920000002","lng":"16.210511099999962"},{"id":"67","name":"Certego AB (filial)","license":"Licensnummer: 345","street":"Biblioteksgatan 7","zipcode":"981 31 KIRUNA","city":"KIRUNA","phone":"TEL:0980-836 50","email":"info.kiruna@certego.se","website":"www.certego.se","latlng":"67.85346249999999,20.22744119999993","lat":"67.85346249999999","lng":"20.22744119999993"},{"id":"68","name":"Axl\u00e5s Solidl\u00e5s AB","license":"Licensnummer: 042","street":"Haukadalsgatan 5","zipcode":"164 40 KISTA","city":"KISTA","phone":"TEL:08-13 29 00","email":"info@axlassolidlas.se","website":"www.axlas.se","latlng":"59.40120390000005,17.960210200000006","lat":"59.40120390000005","lng":"17.960210200000006"},{"id":"69","name":"Bysmeden L\u00e5s AB Kista (filial)","license":"Licensnummer: 540","street":"Vider\u00f6gatan 3","zipcode":"164 40 KISTA","city":"KISTA","phone":"TEL:08-681 78 57","email":"kista@bysmeden.se","website":"www.bysmeden.se","latlng":"59.40385920000001,17.96086779999996","lat":"59.40385920000001","lng":"17.96086779999996"},{"id":"70","name":"L\u00e5ssmeden i Kramfors AB","license":"Licensnummer: 637","street":"Torggatan 4","zipcode":"872 30 KRAMFORS","city":"KRAMFORS","phone":"TEL:0612-120 05","email":"lassmeden@outlook.com","website":"www.l\u00e5s-smeden.se","latlng":"62.93188169999999,17.77681469999993","lat":"62.93188169999999","lng":"17.77681469999993"},{"id":"71","name":"Certego AB (filial)","license":"Licensnummer: 581:1","street":"Isolatorv\u00e4gen 15","zipcode":"291 62 KRISTIANSTAD","city":"KRISTIANSTAD","phone":"TEL:0771-14 65 90","email":"info.kristianstad@certego.se","website":"www.certego.se","latlng":"56.0124355,14.123401899999976","lat":"56.0124355","lng":"14.123401899999976"},{"id":"72","name":"Cityl\u00e5set AB","license":"Licensnummer: 377","street":"F\u00e4ladsgatan 3","zipcode":"291 59 KRISTIANSTAD","city":"KRISTIANSTAD","phone":"TEL:044-21 90 00","email":"info@citylaset.se","website":"www.citylaset.se","latlng":"56.023955400000006,14.144514500000014","lat":"56.023955400000006","lng":"14.144514500000014"},{"id":"73","name":"L\u00e5sm\u00e4starn i V\u00e4rmland AB","license":"Licensnummer: 464","street":"Kungsgatan 36","zipcode":"681 30 KRISTINEHAMN","city":"KRISTINEHAMN","phone":"TEL:0550-164 60","email":"info@lasmastarn.se","website":"www.lasmastarn.se","latlng":"59.31132590000001,14.107283700000039","lat":"59.31132590000001","lng":"14.107283700000039"},{"id":"74","name":"Certego AB (filial)","license":"Licensnummer: 480","street":"V\u00e4stra Drottninggatan 8","zipcode":"692 33 KUMLA","city":"KUMLA","phone":"TEL:019-57 00 67","email":"info.kumla@certego.se","website":"www.certego.se","latlng":"59.129087600000005,15.137034299999982","lat":"59.129087600000005","lng":"15.137034299999982"},{"id":"75","name":"Kungsbacka L\u00e5s & S\u00e4kerhet AB","license":"Licensnummer: 089","street":"Kabelgatan 4","zipcode":"434 37 KUNGSBACKA","city":"KUNGSBACKA","phone":"TEL:0300-129 33","email":"kungsbacka@lasochsakerhet.se","website":"www.lasochsakerhet.se","latlng":"57.5048136,12.068754500000068","lat":"57.5048136","lng":"12.068754500000068"},{"id":"76","name":"Soten\u00e4s L\u00e5sservice AB","license":"Licensnummer: 416","street":"Hamngatan 6","zipcode":"456 31 KUNGSHAMN","city":"KUNGSHAMN","phone":"TEL:0523-712 50","email":"sotenas.lasservice@telia.com","website":"www.sotenaslas.se","latlng":"58.3594535,11.246124399999985","lat":"58.3594535","lng":"11.246124399999985"},{"id":"77","name":"Certego AB (filial)","license":"Licensnummer: 567:3","street":"Sveav\u00e4gen 23","zipcode":"731 30 K\u00d6PING","city":"K\u00d6PING","phone":"TEL:0221- 711 20","email":"info.koping@certego.se","website":"www.certego.se","latlng":"59.51164009999998,15.992629599999987","lat":"59.51164009999998","lng":"15.992629599999987"},{"id":"78","name":"Lerums L\u00e5s & Larmservice, AB","license":"Licensnummer: 218","street":"G\u00f6teborgsv\u00e4gen 3","zipcode":"443 30 LERUM","city":"LERUM","phone":"TEL:0302-130 36","email":"info@lll.se","website":"www.lll.se","latlng":"57.76705240000001,12.264514700000063","lat":"57.76705240000001","lng":"12.264514700000063"},{"id":"79","name":"Liding\u00f6 L\u00e5s & Larm AB","license":"Licensnummer: 041","street":"Lejonv\u00e4gen 14","zipcode":"181 32 LIDING\u00d6","city":"LIDING\u00d6","phone":"TEL:08-765 25 80","email":"info@lidingolas.se","website":"www.lidingolas.se","latlng":"59.363605299999996,18.134507999999983","lat":"59.363605299999996","lng":"18.134507999999983"},{"id":"80","name":"Vadsbol\u00e5s AB (filial)","license":"Licensnummer: 134:3","street":"J\u00e4rnv\u00e4gsgatan 8","zipcode":"531 32 LIDK\u00d6PING","city":"LIDK\u00d6PING","phone":"TEL:0510-656 00","email":"info@vadsbolas.se","website":"www.vadsbolas.se","latlng":"58.50358010000003,13.162486599999966","lat":"58.50358010000003","lng":"13.162486599999966"},{"id":"81","name":"Allm\u00e4nna L\u00e5s i Limhamn, AB","license":"Licensnummer: 607","street":"Hyllie Kyrkov\u00e4g 57","zipcode":"216 14 LIMHAMN","city":"LIMHAMN","phone":"TEL:040-29 39 49","email":"lloyd@allmannalas.se","website":"www.allmannalas.se","latlng":"55.577965599999985,12.936046499999975","lat":"55.577965599999985","lng":"12.936046499999975"},{"id":"82","name":"L\u00e5s och S\u00e4kerhetsspecialisten Sv AB","license":"Licensnummer: 600","street":"Kristinav\u00e4gen 22","zipcode":"711 30 LINDESBERG","city":"LINDESBERG","phone":"TEL:0581-100 03","email":"info@lasochsakerhetsspecialisten","website":"","latlng":"59.59283660000002,15.22884590000001","lat":"59.59283660000002","lng":"15.22884590000001"},{"id":"83","name":"Certego AB (filial)","license":"Licensnummer: 105","street":"Vigfastgatan 6","zipcode":"582 78 LINK\u00d6PING","city":"LINK\u00d6PING","phone":"TEL:013-17 10 00","email":"info.linkoping@certego.se","website":"www.certego.se","latlng":"58.41635419999999,15.644119700000033","lat":"58.41635419999999","lng":"15.644119700000033"},{"id":"84","name":"L\u00e5s & Nycklar i Link\u00f6ping AB","license":"Licensnummer: 052","street":"Gottorpsgatan 49","zipcode":"582 73 LINK\u00d6PING","city":"LINK\u00d6PING","phone":"TEL:010-16 36 770","email":"info@lasochnycklar.se","website":"www.lasochnycklar.se","latlng":"58.43255820000002,15.61191550000001","lat":"58.43255820000002","lng":"15.61191550000001"},{"id":"85","name":"RTS L\u00e5s & Larm AB","license":"Licensnummer: 454","street":"Kolfallsgatan 10","zipcode":"582 73 LINK\u00d6PING","city":"LINK\u00d6PING","phone":"TEL:013-31 51 51","email":"per@rtslasochlarm.se","website":"www.rtslasochlarm.se","latlng":"58.4269808,15.61764740000001","lat":"58.4269808","lng":"15.61764740000001"},{"id":"86","name":"Almqvist & Brunskog AB","license":"Licensnummer: 610","street":"Kungsgatan 67","zipcode":"341 32 LJUNGBY","city":"LJUNGBY","phone":"TEL:0372-831 20","email":"www.almbrun.se","website":"daniel@almbrun.se","latlng":"56.81680739999999,13.91141689999995","lat":"56.81680739999999","lng":"13.91141689999995"},{"id":"87","name":"Lule\u00e5 L\u00e5skonsult, AB","license":"Licensnummer: 106","street":"S\u00f6dra Kungsgatan 5","zipcode":"971 08 LULE\u00c5","city":"LULE\u00c5","phone":"TEL:0920-21 90 00","email":"info@lulealaskonsult.se","website":"www.lulealaskonsult.se","latlng":"65.58106140000001,22.16048969999997","lat":"65.58106140000001","lng":"22.16048969999997"},{"id":"88","name":"All-Round L\u00e5sservice AB","license":"Licensnummer: 155","street":"Lilla Tv\u00e4rgatan 16 B","zipcode":"223 53 LUND","city":"LUND","phone":"TEL:046-211 55 66","email":"butik@allroundlas.com","website":"www.allroundlas.com","latlng":"55.7003891,13.195132199999989","lat":"55.7003891","lng":"13.195132199999989"},{"id":"89","name":"Certego AB (filial)","license":"Licensnummer: 068:1","street":"Propellerv\u00e4gen 16","zipcode":"224 60 LUND","city":"LUND","phone":"TEL:0771-14 65 90","email":"info.lund@certego.se","website":"www.certego.se","latlng":"55.68465110000002,13.21187329999998","lat":"55.68465110000002","lng":"13.21187329999998"},{"id":"90","name":"Great Security Sverige AB (filial)","license":"Licensnummer: 536:4","street":"\u00d6resundsv\u00e4gen 16 A","zipcode":"227 64 LUND","city":"LUND","phone":"TEL:0200-29 44 04","email":"info@greatsecurity.se","website":"www.greatsecurity.se","latlng":"55.71441330000001,13.17382299999997","lat":"55.71441330000001","lng":"13.17382299999997"},{"id":"91","name":"AB Norrskydd (filial)","license":"Licensnummer: 078:1","street":"Borgaregatan 21","zipcode":"921 31 LYCKSELE","city":"LYCKSELE","phone":"TEL:0950-142 92","email":"info@norrskydd.se","website":"www.norrskydd.se","latlng":"64.59705830000001,18.675956799999994","lat":"64.59705830000001","lng":"18.675956799999994"},{"id":"92","name":"Bengtssons L\u00e5sservice AB","license":"Licensnummer: 139","street":"Branteviksgatan 3","zipcode":"214 41 MALM\u00d6","city":"MALM\u00d6","phone":"TEL:040-611 80 33","email":"info@bengtssonslasservice.se","website":"www.bengtssonslasservice.se","latlng":"55.59081259999999,13.028761900000063","lat":"55.59081259999999","lng":"13.028761900000063"},{"id":"93","name":"Certego AB (filial)","license":"Licensnummer: 581","street":"Skeppsgatan 9","zipcode":"211 21 MALM\u00d6","city":"MALM\u00d6","phone":"TEL:0771-14 65 90","email":"info.malmo@certego.se","website":"www.certego.se","latlng":"55.608909100000005,12.980919299999982","lat":"55.608909100000005","lng":"12.980919299999982"},{"id":"94","name":"L\u00e5scentralen E. Borgstr\u00f6m AB","license":"Licensnummer: 054","street":"Nobelv\u00e4gen 17","zipcode":"214 29 MALM\u00d6","city":"MALM\u00d6","phone":"TEL:040-19 20 10","email":"info@lascentralen.se","website":"www.lascentralen.se","latlng":"55.585572,13.00987299999997","lat":"55.585572","lng":"13.00987299999997"},{"id":"95","name":"Nokas L\u00e5s-Aktuellt AB","license":"Licensnummer: 176","street":"Sallerupsv\u00e4gen 11A","zipcode":"212 18 MALM\u00d6","city":"MALM\u00d6","phone":"TEL:040-93 21 30","email":"teknik.syd@nokas.se","website":"www.nokas.se","latlng":"55.603584,13.025874599999952","lat":"55.603584","lng":"13.025874599999952"},{"id":"96","name":"SafeTeam i Sverige AB (filial)","license":"Licensnummer: 002:7","street":"Fosiev\u00e4gen 4","zipcode":"214 31 MALM\u00d6","city":"MALM\u00d6","phone":"TEL:040-97 00 35","email":"malmo@safeteam.se","website":"www.safeteam.se","latlng":"55.58160960000002,13.00921859999994","lat":"55.58160960000002","lng":"13.00921859999994"},{"id":"97","name":"M\u00e4lardalens S\u00e4kerhetscenter AB","license":"Licensnummer: 364:1","street":"Nyponv\u00e4gen 78","zipcode":"647 32 MARIEFRED","city":"MARIEFRED","phone":"TEL:0159-124 00","email":"info@sakerhetscenter.eu","website":"www.sakerhetscenter.eu","latlng":"59.26403260000001,17.230367500000057","lat":"59.26403260000001","lng":"17.230367500000057"},{"id":"98","name":"Vadsbol\u00e5s AB","license":"Licensnummer: 134:1","street":"Stockholmsv\u00e4gen 5","zipcode":"542 33 MARIESTAD","city":"MARIESTAD","phone":"TEL:0501-177 00","email":"info@vadsbolas.se","website":"www.vadsbolas.se","latlng":"58.70987719999998,13.82624839999994","lat":"58.70987719999998","lng":"13.82624839999994"},{"id":"99","name":"S\u00e4kerhetstj\u00e4nst i Markaryd AB","license":"Licensnummer: 556","street":"Drottninggatan 24","zipcode":"285 31 MARKARYD","city":"MARKARYD","phone":"TEL:0433-713 73","email":"pauline@sakerhetstjanst.se","website":"www.sakerhetstjanst.se","latlng":"56.46271210000001,13.596862500000043","lat":"56.46271210000001","lng":"13.596862500000043"},{"id":"100","name":"Axet L\u00e5s i Mj\u00f6lby AB","license":"Licensnummer: 374","street":"J\u00e4rnv\u00e4gsgatan 20","zipcode":"595 52 MJ\u00d6LBY","city":"MJ\u00d6LBY","phone":"TEL:0142-164 45","email":"axet.gp@telia.com","website":"http:\/\/www.xn--axetls-mua.se\/","latlng":"58.32352330000001,15.133382299999994","lat":"58.32352330000001","lng":"15.133382299999994"},{"id":"101","name":"Certego AB (filial)","license":"Licensnummer: 136","street":"Marsgatan 4","zipcode":"591 32 MOTALA","city":"MOTALA","phone":"TEL:0141-480 30","email":"info.motala@certego.se","website":"www.certego.se","latlng":"58.536336500000004,15.014119899999969","lat":"58.536336500000004","lng":"15.014119899999969"},{"id":"102","name":"Nyckell\u00e5s AB","license":"Licensnummer: 191","street":"Stationsgatan 3","zipcode":"195 47 M\u00c4RSTA","city":"M\u00c4RSTA","phone":"TEL:08-591 400 45","email":" nyckellas@nyckellas.se","website":"","latlng":"59.62773109999999,17.85849630000007","lat":"59.62773109999999","lng":"17.85849630000007"},{"id":"103","name":"M\u00f6lndals L\u00e5sservice AB","license":"Licensnummer: 236","street":"Bergmansgatan 22","zipcode":"431 30 M\u00d6LNDAL","city":"M\u00d6LNDAL","phone":"TEL:031-87 05 90","email":"info@molndalslas.se","website":"www.molndalslas.se","latlng":"57.655906900000026,12.01199650000001","lat":"57.655906900000026","lng":"12.01199650000001"},{"id":"104","name":"SafeTeam i Sverige AB (filial)","license":"Licensnummer: 002:4","street":"Fl\u00f6jelbergsgatan 17","zipcode":"431 37 M\u00d6LNDAL","city":"M\u00d6LNDAL","phone":"TEL:031-706 13 60","email":"info@safeteam.se","website":"www.safeteam.se","latlng":"57.67296990000001,12.013695299999995","lat":"57.67296990000001","lng":"12.013695299999995"},{"id":"105","name":"IT Installationsteknik Sverige AB","license":"Licensnummer: 619","street":"Gamla V\u00e4rmd\u00f6v\u00e4gen 4","zipcode":"131 37 NACKA","city":"NACKA","phone":"TEL:08-27 15 10","email":"info@it-s.se","website":"www.it-s.se","latlng":"59.30786160000001,18.138134100000002","lat":"59.30786160000001","lng":"18.138134100000002"},{"id":"106","name":"Nacka L\u00e5s & Larm, AB","license":"Licensnummer: 251","street":"V\u00e4rmd\u00f6v\u00e4gen 260 A","zipcode":"131 42 NACKA","city":"NACKA","phone":"TEL:08-718 33 50","email":"info@nll.nu","website":"www.nll.nu","latlng":"59.30976489999998,18.19753879999996","lat":"59.30976489999998","lng":"18.19753879999996"},{"id":"107","name":"Certego AB (filial)","license":"Licensnummer: 105:1","street":"Spr\u00e4ngstensgatan 1B","zipcode":"603 79 NORRK\u00d6PING","city":"NORRK\u00d6PING","phone":"TEL:011-13 05 00","email":"info.norrkoping@certego.se","website":"www.certego.se","latlng":"58.57134420000001,16.181773399999997","lat":"58.57134420000001","lng":"16.181773399999997"},{"id":"108","name":"L\u00e5s & Nycklar i Norrk\u00f6ping AB","license":"Licensnummer: 056","street":"Tullhusgatan 14","zipcode":"602 28 NORRK\u00d6PING","city":"NORRK\u00d6PING","phone":"TEL:011-13 35 22","email":"mail@lasonycklar.se","website":"www.lasonycklar.se","latlng":"58.591099100000015,16.20238960000006","lat":"58.591099100000015","lng":"16.20238960000006"},{"id":"109","name":"L\u00e5ssmeden i Norrk\u00f6ping AB","license":"Licensnummer: 057","street":"Stockholmsv\u00e4gen 18","zipcode":"602 17 NORRK\u00d6PING","city":"NORRK\u00d6PING","phone":"TEL:011-21 10 60","email":"info@lassmeden.se","website":"www.lassmeden.se","latlng":"58.59705970000001,16.171536400000036","lat":"58.59705970000001","lng":"16.171536400000036"},{"id":"110","name":"Norrk\u00f6pings L\u00e5sverkstad AB","license":"Licensnummer: 579","street":"Fredriksdalsgatan 33","zipcode":"602 23 NORRK\u00d6PING","city":"NORRK\u00d6PING","phone":"TEL:011-28 73 60","email":"bjorn@norrkopingslasverkstad.se ","website":"www.norrkopingslasverkstad.se","latlng":"58.599704700000004,16.181222899999966","lat":"58.599704700000004","lng":"16.181222899999966"},{"id":"111","name":"Nyckelkedjan, AB","license":"Licensnummer: 032","street":"Tr\u00e4dg\u00e5rdsgatan 6A","zipcode":"602 24 NORRK\u00d6PING","city":"NORRK\u00d6PING","phone":"TEL:010-16 36 830","email":"info@nyckelkedjan.se","website":"www.nyckelkedjan.se","latlng":"58.5914904,16.187068899999986","lat":"58.5914904","lng":"16.187068899999986"},{"id":"112","name":"Norrt\u00e4lje L\u00e5sservice AB","license":"Licensnummer: 058","street":"Lilla Brogatan 4C","zipcode":"761 30 NORRT\u00c4LJE","city":"NORRT\u00c4LJE","phone":"TEL:0176-163 06","email":"ntj.las@telia.com","website":"www.ntjlas.se","latlng":"59.75757669999996,18.70528730000001","lat":"59.75757669999996","lng":"18.70528730000001"},{"id":"113","name":"Spaak S\u00e4kerhet AB","license":"Licensnummer: 547","street":"Stockholmsv\u00e4gen 26","zipcode":"761 43 NORRT\u00c4LJE","city":"NORRT\u00c4LJE","phone":"TEL:0176-22 30 20","email":"info@spaaksakerhet.se","website":"www.spaaksakerhet.se","latlng":"59.75070939999999,18.687071500000002","lat":"59.75070939999999","lng":"18.687071500000002"},{"id":"114","name":"Nybro L\u00e5s AB","license":"Licensnummer: 460","street":"Stationsgatan 3A","zipcode":"382 30 NYBRO","city":"NYBRO","phone":"TEL:0481-140 05","email":"info@nybrolas.se","website":"www.nybrolas.se","latlng":"56.74372760000002,15.908980499999984","lat":"56.74372760000002","lng":"15.908980499999984"},{"id":"115","name":"Great Security Mekanik Stockholm AB (filial)","license":"Licensnummer: 132:4","street":"V\u00e4stra Skeppsbron 6","zipcode":"611 31 NYK\u00d6PING","city":"NYK\u00d6PING","phone":"TEL:0155-21 16 17","email":"nykoping@punctumlas.se","website":"www.punctumlas.se","latlng":"58.745584599999994,17.016292900000053","lat":"58.745584599999994","lng":"17.016292900000053"},{"id":"116","name":"S\u00f6dert\u00f6rns L\u00e5s AB","license":"Licensnummer: 167","street":"Skolgatan 33","zipcode":"149 30 NYN\u00c4SHAMN","city":"NYN\u00c4SHAMN","phone":"TEL:08-524 00 940","email":"info@sodertornslas.se","website":"www.sodertornslas.se","latlng":"58.9086137,17.9486723","lat":"58.9086137","lng":"17.9486723"},{"id":"117","name":"Sj\u00f6grens L\u00e5s & Brandskydd AB","license":"Licensnummer: 428","street":"V\u00e4derumsv\u00e4gen 10","zipcode":"572 36 OSKARSHAMN","city":"OSKARSHAMN","phone":"TEL:0491-148 73","email":"eva-lena@sjogrenslas.com","website":"www.sjogrenslas.com","latlng":"57.25496279999999,16.435584999999946","lat":"57.25496279999999","lng":"16.435584999999946"},{"id":"118","name":"AB Norrskydd (filial)","license":"Licensnummer: 078:3","street":"Lillbrogatan 7","zipcode":"941 32 PITE\u00c5","city":"PITE\u00c5","phone":"TEL:0770-221040","email":"info@norrskydd.se","website":"www.norrskydd.se","latlng":"65.31818090000002,21.477016899999967","lat":"65.31818090000002","lng":"21.477016899999967"},{"id":"119","name":"Vadsbol\u00e5s AB (filial)","license":"Licensnummer: 134:5","street":"J\u00e4rnv\u00e4gsgatan 9","zipcode":"532 30 SKARA","city":"SKARA","phone":"TEL:0511-167 60","email":"info@vadsbolas.se","website":"www.vadsbolas.se","latlng":"58.3838707,13.43966469999998","lat":"58.3838707","lng":"13.43966469999998"},{"id":"120","name":"Stanley Security Sverige AB","license":"Licensnummer: 598","street":"Fraktflygargatan 18","zipcode":"128 30 SKARPN\u00c4CK","city":"SKARPN\u00c4CK","phone":"TEL:010-458 70 00","email":"ordermail@niscayah.se","website":"www.niscayah.se","latlng":"59.26660219999997,18.12290150000001","lat":"59.26660219999997","lng":"18.12290150000001"},{"id":"121","name":"Axl\u00e5s Solidl\u00e5s AB (filial)","license":"Licensnummer: 042:1","street":"Bredholmsgatan 22","zipcode":"127 48 SK\u00c4RHOLMEN","city":"SK\u00c4RHOLMEN","phone":"TEL:08-710 06 70","email":"skarh@axlassolidlas.se","website":"www.axlas.se","latlng":"59.27446013571923,17.904269672927853","lat":"59.27446013571923","lng":"17.904269672927853"},{"id":"122","name":"L\u00e5sTeam AB (filial)","license":"Licensnummer: 489","street":"Magasinsgatan 5","zipcode":"541 34  SK\u00d6VDE","city":"SK\u00d6VDE","phone":"TEL:0500 - 781 129","email":"skovde@lasteam.se","website":"www.lasteam.se","latlng":"58.390278200000004,13.846120799999994","lat":"58.390278200000004","lng":"13.846120799999994"},{"id":"123","name":"Vadsbol\u00e5s AB (filial)","license":"Licensnummer: 134:2","street":"Gustav Adolfs gata 53","zipcode":"541 45 SK\u00d6VDE","city":"SK\u00d6VDE","phone":"TEL:0500-41 01 45","email":"info@vadsbolas.se","website":"www.vadsbolas.se","latlng":"58.40434359999999,13.851347600000054","lat":"58.40434359999999","lng":"13.851347600000054"},{"id":"124","name":"Gerts L\u00e5s & Larm AB","license":"Licensnummer: 335","street":"Hovslagarev\u00e4gen 5","zipcode":"192 54 SOLLENTUNA","city":"SOLLENTUNA","phone":"TEL:08-35 41 00","email":"patrik@gertslas.se","website":"www.gertslas.se","latlng":"59.44653939999999,17.954822799999988","lat":"59.44653939999999","lng":"17.954822799999988"},{"id":"125","name":"Norra Stationen L\u00e5s & Larm AB","license":"Licensnummer: 476","street":"\u00c5kerv\u00e4gen 9A","zipcode":"191 40 SOLLENTUNA","city":"SOLLENTUNA","phone":"TEL:08-30 97 10","email":"abatronic@swipnet.se","website":"www.abatronic.se","latlng":"59.41334630000001,17.96016540000005","lat":"59.41334630000001","lng":"17.96016540000005"},{"id":"126","name":"Sollentuna L\u00e5s AB","license":"Licensnummer: 362:1","street":"Rotsunda Torg 3","zipcode":"192 78 SOLLENTUNA","city":"SOLLENTUNA","phone":"TEL:08-754 40 50","email":"info@sollentunalas.se","website":"www.sollentunalas.se","latlng":"59.482363600000006,17.916727400000013","lat":"59.482363600000006","lng":"17.916727400000013"},{"id":"127","name":"R\u00e5sunda L\u00e5s AB","license":"Licensnummer: 081","street":"R\u00e5sundav\u00e4gen 155","zipcode":"169 36 SOLNA","city":"SOLNA","phone":"TEL:08-27 53 68","email":"info@rasundalas.se","website":"www.rasundalas.se","latlng":"59.36550029999999,17.982818800000018","lat":"59.36550029999999","lng":"17.982818800000018"},{"id":"128","name":"Sp\u00e5nga L\u00e5s AB","license":"Licensnummer: 211","street":"Sp\u00e5nga Stationsv\u00e4g 33","zipcode":"163 51 SP\u00c5NGA","city":"SP\u00c5NGA","phone":"TEL:08-761 40 08","email":"spangalas@comhem.se","website":"www.spangalas.se","latlng":"59.38200760000001,17.90003439999998","lat":"59.38200760000001","lng":"17.90003439999998"},{"id":"129","name":"SafeTeam i Sverige AB (filial)","license":"Licensnummer: 002:6","street":"Doter\u00f6dsv\u00e4gen 1-3","zipcode":"444 40 STENUNGSUND","city":"STENUNGSUND","phone":"TEL:0303-833 35","email":"butiken.stenungsund@safeteam.se","website":"www.safeteam.se","latlng":"58.06949010000002,11.823928000000024","lat":"58.06949010000002","lng":"11.823928000000024"},{"id":"130","name":"Axl\u00e5s Solidl\u00e5s AB (filial)","license":"Licensnummer: 042:2","street":"R\u00e5dmansgatan 54","zipcode":"113 57 STOCKHOLM","city":"STOCKHOLM","phone":"TEL:08-673 33 33","email":"city@axlassolidlas.se","website":"www.axlas.se","latlng":"59.34071130000001,18.05946169999993","lat":"59.34071130000001","lng":"18.05946169999993"},{"id":"131","name":"Begel\u00e5s, AB","license":"Licensnummer: 075","street":"V\u00e4stmannagatan 31","zipcode":"113 25 STOCKHOLM","city":"STOCKHOLM","phone":"TEL:08-34 08 50","email":"begelas@swipnet.se","website":"www.begelas.se","latlng":"59.3392139,18.04978540000002","lat":"59.3392139","lng":"18.04978540000002"},{"id":"132","name":"Corells L\u00e5s AB","license":"Licensnummer: 124","street":"Pilgatan 23","zipcode":"112 23 STOCKHOLM","city":"STOCKHOLM","phone":"TEL:08-651 82 32","email":"info@corellslas.se","website":"www.corellslas.se","latlng":"59.3302402,18.039567199999965","lat":"59.3302402","lng":"18.039567199999965"},{"id":"133","name":"Great Security Mekanik Stockholm AB (filial)","license":"Licensnummer: 132:1","street":"Drottningholmsv\u00e4gen 17","zipcode":"112 42 STOCKHOLM","city":"STOCKHOLM","phone":"TEL:08-650 17 17","email":"fridhemsplan@punctumlas.se","website":"www.punctumlas.se","latlng":"59.33186009999999,18.02965710000001","lat":"59.33186009999999","lng":"18.02965710000001"},{"id":"134","name":"Hornsplans L\u00e5sservice AB","license":"Licensnummer: 013","street":"Ringv\u00e4gen 17","zipcode":"118 53 STOCKHOLM","city":"STOCKHOLM","phone":"TEL:08-668 68 78","email":"info@hornsplanslas.se","website":"www.hornsplanslas.se","latlng":"59.31716410000001,18.051132999999936","lat":"59.31716410000001","lng":"18.051132999999936"},{"id":"135","name":"Karla L\u00e5sservice AB","license":"Licensnummer: 015","street":"V\u00e4rtav\u00e4gen 4","zipcode":"115 24 STOCKHOLM","city":"STOCKHOLM","phone":"TEL:08-660 77 22","email":"info@karlalas.se","website":"www.karlalas.se","latlng":"59.33868620000002,18.09171649999996","lat":"59.33868620000002","lng":"18.09171649999996"},{"id":"136","name":"Kungsholms L\u00e5sservice AB","license":"Licensnummer: 016","street":"Polhemsgatan 7","zipcode":"112 36 STOCKHOLM","city":"STOCKHOLM","phone":"TEL:08-652 31 11","email":"info@kungsholmslas.se","website":"www.kungsholmslas.se","latlng":"59.32877419999998,18.03546069999993","lat":"59.32877419999998","lng":"18.03546069999993"},{"id":"137","name":"Kungsl\u00e5s AB","license":"Licensnummer: 113","street":"Fleminggatan 23","zipcode":"112 26 STOCKHOLM","city":"STOCKHOLM","phone":"TEL:08-652 04 00","email":"info@kungslas.se","website":"www.kungslas.se","latlng":"59.3328394,18.04409229999999","lat":"59.3328394","lng":"18.04409229999999"},{"id":"138","name":"Lindells L\u00e5sservice AB","license":"Licensnummer: 017","street":"Upplandsgatan 7","zipcode":"111 23 STOCKHOLM","city":"STOCKHOLM","phone":"TEL:08-411 44 01","email":"lindellslas@telia.com","website":"","latlng":"59.33687020000001,18.05410729999994","lat":"59.33687020000001","lng":"18.05410729999994"},{"id":"139","name":"L\u00e5sborgen AB","license":"Licensnummer: 448","street":"Heleneborgsgatan 13","zipcode":"117 31 STOCKHOLM","city":"STOCKHOLM","phone":"TEL:08-720 61 70","email":"info@lasborgen.se","website":"www.lasborgen.se","latlng":"59.318749300000015,18.03666099999998","lat":"59.318749300000015","lng":"18.03666099999998"},{"id":"140","name":"L\u00e5scentrum AB","license":"Licensnummer: 340","street":"Surbrunnsgatan 32","zipcode":"113 48 STOCKHOLM","city":"STOCKHOLM","phone":"TEL:08-612 99 40","email":"info@lascentrum.se","website":"www.lascentrum.se","latlng":"59.345637399999994,18.05807100000004","lat":"59.345637399999994","lng":"18.05807100000004"},{"id":"141","name":"L\u00e5skomfort AB","license":"Licensnummer: 210","street":"Odengatan 72","zipcode":"113 22 STOCKHOLM","city":"STOCKHOLM","phone":"TEL:08-32 32 30","email":"info@laskomfort.se","website":"www.laskomfort.se ","latlng":"59.34191200000003,18.045712699999967","lat":"59.34191200000003","lng":"18.045712699999967"},{"id":"142","name":"L\u00e5skompetens i Stockholm AB","license":"Licensnummer: 590","street":"Pipersgatan 2","zipcode":"112 24 STOCKHOLM","city":"STOCKHOLM","phone":"TEL:08-650 60 70","email":"stefan@laskompetens.se","website":"www.laskompetens.se","latlng":"59.32894759999999,18.045057499999984","lat":"59.32894759999999","lng":"18.045057499999984"},{"id":"143","name":"L\u00e5smakarna AB","license":"Licensnummer: 226","street":"H\u00f6gbergsgatan 85","zipcode":"118 54 STOCKHOLM","city":"STOCKHOLM","phone":"TEL:08-642 63 03","email":"info@lasmakarna.se","website":"www.lasmakarna.se","latlng":"59.315128100000024,18.06226300000003","lat":"59.315128100000024","lng":"18.06226300000003"},{"id":"144","name":"L\u00e5sman AB","license":"Licensnummer: 022","street":"Rosenlundsgatan 20","zipcode":"118 53 STOCKHOLM","city":"STOCKHOLM","phone":"TEL:08-84 00 14","email":"info@lasman.se","website":"www.lasman.se","latlng":"59.31676800000002,18.05553599999996","lat":"59.31676800000002","lng":"18.05553599999996"},{"id":"145","name":"L\u00e5ssmeden FGJ AB","license":"Licensnummer: 024","street":"Katarina Bangata 35","zipcode":"116 39 STOCKHOLM","city":"STOCKHOLM","phone":"TEL:08-642 52 63","email":"lassmeden.ab@ownit.nu","website":"","latlng":"59.3115094,18.080773799999974","lat":"59.3115094","lng":"18.080773799999974"},{"id":"146","name":"L\u00e5ssnabben AB","license":"Licensnummer: 248","street":"Katarina Bangata 51","zipcode":"116 39 STOCKHOLM","city":"STOCKHOLM","phone":"TEL:08-642 42 43","email":"lassnabben@hotmail.com","website":"www.lassnabben.se","latlng":"59.31013640000002,18.085432500000024","lat":"59.31013640000002","lng":"18.085432500000024"},{"id":"147","name":"L\u00e5sTeam AB (filial)","license":"Licensnummer: 489","street":"Fj\u00e4rde Bass\u00e4ngv\u00e4gen 19","zipcode":"115 41 STOCKHOLM","city":"STOCKHOLM","phone":"TEL:\u00a008-588 393 30","email":"stockholm@lasteam.se","website":"www.lasteam.se","latlng":"59.34770859999998,18.11340919999998","lat":"59.34770859999998","lng":"18.11340919999998"},{"id":"148","name":"Nybergs L\u00e5s AB","license":"Licensnummer: 026","street":"D\u00f6belnsgatan 67B","zipcode":"113 52 STOCKHOLM","city":"STOCKHOLM","phone":"TEL:08-673 27 34","email":"www.info@nybergslas.se","website":"www.nybergslas.se","latlng":"59.34356589999998,18.058704000000034","lat":"59.34356589999998","lng":"18.058704000000034"},{"id":"149","name":"S:t Eriks L\u00e5s AB","license":"Licensnummer: 028","street":"S:t Eriksgatan 83","zipcode":"113 32 STOCKHOLM","city":"STOCKHOLM","phone":"TEL:08-31 91 01","email":"kai@stlas.se","website":"www.stlas.se","latlng":"59.34040810000001,18.036708800000042","lat":"59.34040810000001","lng":"18.036708800000042"},{"id":"150","name":"SafeTeam i Sverige AB (filial)","license":"Licensnummer: 031","street":"Frejgatan 16","zipcode":"113 49 STOCKHOLM","city":"STOCKHOLM","phone":"TEL:08-442 99 60","email":"stockholm@safeteam.se","website":"www.safeteam.se","latlng":"59.34774270000001,18.058168600000045","lat":"59.34774270000001","lng":"18.058168600000045"},{"id":"151","name":"Solidl\u00e5s AB","license":"Licensnummer: 030","street":"Strandbergsgatan 53","zipcode":"112 51 STOCKHOLM","city":"STOCKHOLM","phone":"TEL:08-13 29 00","email":"info@solidlas.se","website":"www.solidlas.se","latlng":"59.33823020000002,18.01055240000005","lat":"59.33823020000002","lng":"18.01055240000005"},{"id":"152","name":"Stockholms L\u00e5sservice City AB","license":"Licensnummer: 010","street":"Brahegatan 9","zipcode":"114 37 STOCKHOLM","city":"STOCKHOLM","phone":"TEL:08-679 77 33","email":"info@sthlmslas.se","website":"www.sthlmslas.se","latlng":"59.33771790000001,18.07583520000003","lat":"59.33771790000001","lng":"18.07583520000003"},{"id":"153","name":"Storstadens L\u00e5s HB","license":"Licensnummer: 433","street":"Vanadisv\u00e4gen 39","zipcode":"113 23 STOCKHOLM","city":"STOCKHOLM","phone":"TEL:08-21 21 21","email":"www.storstadenslas.se","website":"info@storstadenslas.se","latlng":"59.3451647,18.04125410000006","lat":"59.3451647","lng":"18.04125410000006"},{"id":"154","name":"Storstadens L\u00e5s HB","license":"Licensnummer: 433","street":"Vanadisv\u00e4gen 39","zipcode":"113 23 STOCKHOLM","city":"STOCKHOLM","phone":"TEL:08-21 21 21","email":"info@storstadenslas.se","website":"www.storstadenslas.se","latlng":"59.3451647,18.04125410000006","lat":"59.3451647","lng":"18.04125410000006"},{"id":"155","name":"S\u00f6derl\u00e5s vid Ringen AB","license":"Licensnummer: 507","street":"Ringv\u00e4gen 114","zipcode":"116 61 STOCKHOLM","city":"STOCKHOLM","phone":"TEL:08-442 08 64","email":"info@soderlas.se","website":"www.soderlas.se","latlng":"59.3079813,18.080000100000007","lat":"59.3079813","lng":"18.080000100000007"},{"id":"156","name":"S\u00f6dermalms L\u00e5s AB","license":"Licensnummer: 625","street":"Bondegatan 1","zipcode":"116 23  Stockholm","city":"Stockholm","phone":"TEL:","email":"info@sodermalmslas.se","website":"www.sodermalmslas.se","latlng":"59.3124472,18.074785099999986","lat":"59.3124472","lng":"18.074785099999986"},{"id":"157","name":"Certego AB (filial)","license":"Licensnummer: 068:5","street":"Eldsundsstr\u00e5ket 13 \/ Eldsunda Byggnad 021","zipcode":"645 35 STR\u00c4NGN\u00c4S","city":"STR\u00c4NGN\u00c4S","phone":"TEL:0152-433 10","email":"info.strangnas@certego.se","website":"www.certego.se","latlng":"59.38520554878552,17.000036032910195","lat":"59.38520554878552","lng":"17.000036032910195"},{"id":"158","name":"Great Security Mekanik Stockholm AB","license":"Licensnummer: 132","street":"J\u00e4rnv\u00e4gsgatan 70","zipcode":"172 35 SUNDBYBERG","city":"SUNDBYBERG","phone":"TEL:08-29 65 00","email":"sundbyberg@punctumlas.se","website":"www.punctumlas.se","latlng":"59.365197700000024,17.958739100000003","lat":"59.365197700000024","lng":"17.958739100000003"},{"id":"159","name":"L\u00e5spunkten AB","license":"Licensnummer: 170","street":"Landsv\u00e4gen 57","zipcode":"172 65 SUNDBYBERG","city":"SUNDBYBERG","phone":"TEL:08-28 40 01","email":"info@laspunkten.se","website":"www.laspunkten.se","latlng":"59.36126410000001,17.9661251","lat":"59.36126410000001","lng":"17.9661251"},{"id":"160","name":"Byggbeslag AB, L\u00e5savdelningen","license":"Licensnummer: 253","street":"Verkstadsgatan 4","zipcode":"856 33 SUNDSVALL","city":"SUNDSVALL","phone":"TEL:060-15 07 70","email":"ulf.frestadius@byggbeslag.se","website":"www.byggbeslag.se","latlng":"62.3952182,17.345370600000024","lat":"62.3952182","lng":"17.345370600000024"},{"id":"161","name":"L\u00e5s & Maskinservice AB","license":"Licensnummer: 114","street":"Heffnersv\u00e4gen 30","zipcode":"856 33 SUNDSVALL","city":"SUNDSVALL","phone":"TEL:060-12 27 12","email":"butik@lasomaskin.se","website":"www.lasomaskin.se","latlng":"62.39462199999999,17.329632100000026","lat":"62.39462199999999","lng":"17.329632100000026"},{"id":"162","name":"Nokas L\u00e5steknik i G\u00f6teborg  AB (filial)","license":"Licensnummer: 159:1","street":"G\u00f6teborgsv\u00e4gen 32-34","zipcode":"433 60 S\u00c4VEDALEN","city":"S\u00c4VEDALEN","phone":"TEL:031-26 26 66","email":"janne.lysfjord@nokas.se","website":"www.nokas.se","latlng":"57.73141609999999,12.062545900000032","lat":"57.73141609999999","lng":"12.062545900000032"},{"id":"163","name":"Axl\u00e5s Solidl\u00e5s AB (filial)","license":"Licensnummer: 310","street":"Dalgatan 21A","zipcode":"151 33 S\u00d6DERT\u00c4LJE","city":"S\u00d6DERT\u00c4LJE","phone":"TEL:08-550 674 40","email":"talje@axlassolidlas.se","website":"www.axlas.se","latlng":"59.1966541,17.619091900000058","lat":"59.1966541","lng":"17.619091900000058"},{"id":"164","name":"Certego AB (filial)","license":"Licensnummer: 999","street":"Nyk\u00f6pingsv\u00e4gen 50","zipcode":"151 32 S\u00d6DERT\u00c4LJE","city":"S\u00d6DERT\u00c4LJE","phone":"TEL:08-550 304 60","email":"info.sodertalje@certego.se","website":"www.certego.se","latlng":"59.18736159999999,17.62766959999999","lat":"59.18736159999999","lng":"17.62766959999999"},{"id":"165","name":"M\u00e4lardalens S\u00e4kerhetscenter AB (filial)","license":"Licensnummer: 364:2","street":"Wedav\u00e4gen 6","zipcode":"152 42 S\u00d6DERT\u00c4LJE","city":"S\u00d6DERT\u00c4LJE","phone":"TEL:08-550 400 00","email":"info@sakerhetscenter.eu","website":"www.sakerhetscenter.eu","latlng":"59.20567129999998,17.643517299999985","lat":"59.20567129999998","lng":"17.643517299999985"},{"id":"166","name":"Telge L\u00e5s & Nyckel AB","license":"Licensnummer: 060","street":"Paradisgr\u00e4nd 8-10","zipcode":"151 36 S\u00d6DERT\u00c4LJE","city":"S\u00d6DERT\u00c4LJE","phone":"TEL:08-550 180 02","email":"telgelas@telia.com","website":"","latlng":"59.2000939,17.62656830000003","lat":"59.2000939","lng":"17.62656830000003"},{"id":"167","name":"Isgrens L\u00e5s AB","license":"Licensnummer: 061","street":"Hedv\u00e4gen196","zipcode":"231 66 TRELLEBORG","city":"TRELLEBORG","phone":"TEL:0410-177 00","email":"info@isgrens.se","website":"www.isgrens.se","latlng":"55.3823854,13.13856229999999","lat":"55.3823854","lng":"13.13856229999999"},{"id":"168","name":"Dalek L\u00e5s & Larm AB","license":"Licensnummer: 135","street":"Mj\u00f6lnaregatan 4","zipcode":"461 32 TROLLH\u00c4TTAN","city":"TROLLH\u00c4TTAN","phone":"TEL:0520-47 47 47","email":"lasservice@dalek.se","website":"www.dalek.se","latlng":"58.28261990000002,12.30218119999995","lat":"58.28261990000002","lng":"12.30218119999995"},{"id":"169","name":"SafeTeam i Sverige AB (filial)","license":"Licensnummer: 002:5","street":"Verkm\u00e4starev\u00e4gen 5","zipcode":"461 37  TROLLH\u00c4TTAN","city":"TROLLH\u00c4TTAN","phone":"TEL:0520 - 341 00 ","email":"butiken.trollhattan@safeteam.se","website":"www.safeteam.se","latlng":"58.27609299999998,12.320890400000053","lat":"58.27609299999998","lng":"12.320890400000053"},{"id":"170","name":"Tyres\u00f6 L\u00e5sservice AB","license":"Licensnummer: 141","street":"All\u00e9plan 2","zipcode":"135 51 TYRES\u00d6","city":"TYRES\u00d6","phone":"TEL:08-712 92 00","email":"info@tyresolas.se","website":"www.tyresolas.se","latlng":"59.22304912609073,18.1972524037659","lat":"59.22304912609073","lng":"18.1972524037659"},{"id":"171","name":"Ensta L\u00e5s AB","license":"Licensnummer: 602","street":"Biblioteksg\u00e5ngen 2","zipcode":"183 70 T\u00c4BY","city":"T\u00c4BY","phone":"TEL:08-758 84 56","email":"gunnar@enstalas.se","website":"www.enstalas.se","latlng":"59.4455526,18.069692300000042","lat":"59.4455526","lng":"18.069692300000042"},{"id":"172","name":"T\u00e4by Danderyds L\u00e5s AB","license":"Licensnummer: 530:1","street":"N\u00e4sbydalsv\u00e4gen 9","zipcode":"183 31 T\u00c4BY","city":"T\u00c4BY","phone":"TEL:08-758 36 00","email":"info@tdlas.se","website":"www.tabylas.se","latlng":"59.43640130000001,18.064747699999998","lat":"59.43640130000001","lng":"18.064747699999998"},{"id":"173","name":"Rikstv\u00e5ans L\u00e5sservice AB","license":"Licensnummer: 568","street":"G\u00f6teborgsv\u00e4gen 12","zipcode":"451 42 UDDEVALLA","city":"UDDEVALLA","phone":"TEL:0522-231 00","email":"info@rikstvaan.se","website":"www.rikstvaanslas.com","latlng":"58.3455213,11.928897600000028","lat":"58.3455213","lng":"11.928897600000028"},{"id":"174","name":"Perssons L\u00e5sservice AB","license":"Licensnummer: 551","street":"Tegelbruksgatan 10","zipcode":"523 37 ULRICEHAMN","city":"ULRICEHAMN","phone":"TEL:0321-159 47","email":"persson.las@hotmail.com","website":"","latlng":"57.79901949999999,13.41523230000007","lat":"57.79901949999999","lng":"13.41523230000007"},{"id":"175","name":"AB Norrskydd","license":"Licensnummer: 078","street":"Sp\u00e5rv\u00e4gen 6","zipcode":"901 31 UME\u00c5","city":"UME\u00c5","phone":"TEL:0770 \u2013 22 10 10","email":"info@norrskydd.se","website":"www.norrskydd.se","latlng":"63.82982770000002,20.26558460000001","lat":"63.82982770000002","lng":"20.26558460000001"},{"id":"176","name":"Certego AB (filial)","license":"Licensnummer: 583","street":"Backenv\u00e4gen 25 A","zipcode":"903 54 UME\u00c5","city":"UME\u00c5","phone":"TEL:090-12 60 25","email":"info.umea@certego.se","website":"www.certego.se","latlng":"63.832692600000016,20.21867229999998","lat":"63.832692600000016","lng":"20.21867229999998"},{"id":"177","name":"L\u00e5skedjan i Ume\u00e5 AB","license":"Licensnummer: 555","street":"Sp\u00e5rv\u00e4gen 8","zipcode":"901 31 UME\u00c5","city":"UME\u00c5","phone":"TEL:010-1636750 ","email":"info.umea@bbgruppen.se","website":"www.bbgruppen.se ","latlng":"63.839071600000004,20.239752599999974","lat":"63.839071600000004","lng":"20.239752599999974"},{"id":"178","name":"Great Security Mekanik Stockholm AB","license":"Licensnummer: 132:5","street":"Kanalv\u00e4gen 5A","zipcode":"194 61  UPPLANDS V\u00c4SBY","city":"UPPLANDS V\u00c4SBY","phone":"TEL:08-58 96 966","email":"vasby@punctum.se","website":"http:\/\/www.punctumlas.se\/","latlng":"59.49852559999997,17.927346199999988","lat":"59.49852559999997","lng":"17.927346199999988"},{"id":"179","name":"V\u00e4sby L\u00e5s & Alarm AB","license":"Licensnummer: 654","street":"Dragonv\u00e4gen 104","zipcode":"194 74 UPPLANDS V\u00c4SBY","city":"UPPLANDS V\u00c4SBY","phone":"TEL:08-551 157 30","email":"mail.@vasbylas.se","website":"www.vasbylas.se","latlng":"59.52046290000002,17.90951359999997","lat":"59.52046290000002","lng":"17.90951359999997"},{"id":"180","name":"Certego AB (filial)","license":"Licensnummer: 068:2","street":"Fyrislundsgatan 68","zipcode":"754 50 UPPSALA","city":"UPPSALA","phone":"TEL:018-56 90 00","email":"info.uppsala@certego.se","website":"www.certego.se","latlng":"59.85899509999998,17.6895485","lat":"59.85899509999998","lng":"17.6895485"},{"id":"181","name":"L\u00e5sservice i M\u00e4lardalen AB","license":"Licensnummer: 518","street":"Bergsbrunnagatan 18","zipcode":"753 23 UPPSALA","city":"UPPSALA","phone":"TEL:018-24 28 00 ","email":"lasserviceimalardalen@telia.com","website":"www.lsim.se","latlng":"59.85674399999999,17.661592199999973","lat":"59.85674399999999","lng":"17.661592199999973"},{"id":"182","name":"Botkyrka L\u00e5s & S\u00e4kerhetsmontage AB","license":"Licensnummer: 635","street":"Victoriav\u00e4gen 32","zipcode":"147 61 UTTRAN","city":"UTTRAN","phone":"TEL:08-530 361 75","email":"info@botkyrkalas.se","website":"www.botkyrkalas.se","latlng":"59.194210899999966,17.812680499999942","lat":"59.194210899999966","lng":"17.812680499999942"},{"id":"183","name":"T\u00e4by Danderyds L\u00e5s AB (fillial)","license":"Licensnummer: 362","street":"Centralv\u00e4gen 5","zipcode":"186 31 VALLENTUNA","city":"VALLENTUNA","phone":"TEL:08-511 732 64","email":"info@vallentunalas.se","website":"www.vallentunalas.se","latlng":"59.53280510000001,18.0776836","lat":"59.53280510000001","lng":"18.0776836"},{"id":"184","name":"Great Security Sverige AB","license":"Licensnummer: 536","street":"Vagnv\u00e4gen 16 C","zipcode":"432 32 VARBERG","city":"VARBERG","phone":"TEL:0340-645 800","email":"info@greatsecurity.se","website":"www.greatsecurity.se","latlng":"57.12360489999999,12.28691200000003","lat":"57.12360489999999","lng":"12.28691200000003"},{"id":"185","name":"L\u00e5sservice i Varberg","license":"Licensnummer: 658","street":"Pr\u00e4stgatan 29","zipcode":"432 44  Varberg","city":"Varberg","phone":"TEL:0340-85100","email":"info@lasserviceivbg.se","website":"http:\/\/lasserviceivbg.se\/","latlng":"57.10417730000001,12.25200289999998","lat":"57.10417730000001","lng":"12.25200289999998"},{"id":"186","name":"L\u00e5s & Nyckelservice Vimmerby","license":"Licensnummer: 484","street":"St\u00e5ng\u00e5gatan 4","zipcode":"598 37 VIMMERBY","city":"VIMMERBY","phone":"TEL:0492-102 08","email":"butiken@lasochnyckelservice.se","website":"www.lasochnyckelservice.se","latlng":"57.665142400000015,15.850044400000002","lat":"57.665142400000015","lng":"15.850044400000002"},{"id":"187","name":"Gotlands Glas & L\u00e5s AB","license":"Licensnummer: 066","street":"S\u00f6derv\u00e4g 7A","zipcode":"621 58 VISBY","city":"VISBY","phone":"TEL:0498-21 35 40","email":"info@glasolas.se","website":"www.glasolas.se","latlng":"57.6295523,18.287170400000036","lat":"57.6295523","lng":"18.287170400000036"},{"id":"188","name":"Visby L\u00e5s & Nyckeltj\u00e4nst ","license":"Licensnummer: 456","street":"Skarph\u00e4llsgatan 1","zipcode":"621 25 Visby","city":"Visby","phone":"TEL:0498-659900","email":"info@visbylas.se","website":"http:\/\/www.visbylas.se\/","latlng":"57.634800000000006,18.294840000000022","lat":"57.634800000000006","lng":"18.294840000000022"},{"id":"189","name":"Garantil\u00e5s i Stockholm AB","license":"Licensnummer: 352","street":"V\u00e4llingby Torg 29","zipcode":"162 65 V\u00c4LLINGBY","city":"V\u00c4LLINGBY","phone":"TEL:08-87 20 30","email":"info@garantilas.se","website":"www.garantilas.se","latlng":"59.3624153,17.871795499999962","lat":"59.3624153","lng":"17.871795499999962"},{"id":"190","name":"Puttes L\u00e5s & Nyckelservice AB","license":"Licensnummer: 151","street":"Edsgatan 1B","zipcode":"462 34 V\u00c4NERSBORG","city":"V\u00c4NERSBORG","phone":"TEL:0521-627 45","email":"puttesnyckel@swipnet.se","website":"","latlng":"58.37746669999999,12.321120299999961","lat":"58.37746669999999","lng":"12.321120299999961"},{"id":"191","name":"L\u00e5sservice i V\u00e4rnamo AB","license":"Licensnummer: 258","street":"Malm\u00f6v\u00e4gen 16","zipcode":"331 42 V\u00c4RNAMO","city":"V\u00c4RNAMO","phone":"TEL:0370-180 10","email":"info@varnamolasservice.se","website":"www.varnamolasservice.se","latlng":"57.17772520000001,14.059412199999997","lat":"57.17772520000001","lng":"14.059412199999997"},{"id":"192","name":"Certego AB","license":"Licensnummer: 068","street":"Pressverksgatan 4","zipcode":"721 30 V\u00c4STER\u00c5S","city":"V\u00c4STER\u00c5S","phone":"TEL:021-109 630","email":"info.vasteras@certego.se","website":"www.certego.se","latlng":"59.61669649999998,16.560913000000028","lat":"59.61669649999998","lng":"16.560913000000028"},{"id":"193","name":"Finlarm AB","license":"Licensnummer: 649","street":"Sigurdsgatan 7","zipcode":"721 30 V\u00c4STER\u00c5S","city":"V\u00c4STER\u00c5S","phone":"TEL:021-10 79 70","email":"info@protectyou.se","website":"www.protectyou.se","latlng":"59.604976699999995,16.5502831","lat":"59.604976699999995","lng":"16.5502831"},{"id":"194","name":"Lundkvist L\u00e5s & Nycklar AB","license":"Licensnummer: 067","street":"Sturegatan 24","zipcode":"722 13 V\u00c4STER\u00c5S","city":"V\u00c4STER\u00c5S","phone":"TEL:021-13 09 63","email":"kontoret@lundkvistlas.se","website":"www.lundkvistlas.se","latlng":"59.612235099999985,16.547213199999987","lat":"59.612235099999985","lng":"16.547213199999987"},{"id":"195","name":"L\u00e5scenter i V\u00e4ster\u00e5s AB","license":"Licensnummer: 618","street":"\u00c4ngsg\u00e4rdsgatan 12","zipcode":"721 30  V\u00c4STER\u00c5S","city":"V\u00c4STER\u00c5S","phone":"TEL:021-18 00 92","email":"info@lascenter.se","website":"www.lascenter.se","latlng":"59.61601920000001,16.56507190000002","lat":"59.61601920000001","lng":"16.56507190000002"},{"id":"196","name":"SafeTeam i Sverige AB (filial)","license":"Licensnummer: 002:3","street":"August Barks gata 2","zipcode":"421 32 V\u00c4STRA FR\u00d6LUNDA","city":"V\u00c4STRA FR\u00d6LUNDA","phone":"TEL:031-68 26 10","email":"info@safeteam.se","website":"www.safeteam.se","latlng":"57.6482706,11.941308700000036","lat":"57.6482706","lng":"11.941308700000036"},{"id":"197","name":"Certego AB (filial)","license":"Licensnummer: 068:7","street":"Smedjegatan 19","zipcode":"352 46 V\u00c4XJ\u00d6","city":"V\u00c4XJ\u00d6","phone":"TEL:0470-72 28 50","email":"info.vaxjo@certego.se","website":"www.certego.se","latlng":"56.88336820000001,14.779889499999967","lat":"56.88336820000001","lng":"14.779889499999967"},{"id":"198","name":"Sk\u00e5ne L\u00e5s, AB","license":"Licensnummer: 203","street":"Koppargatan 28","zipcode":"271 39 YSTAD","city":"YSTAD","phone":"TEL:0411-55 5110","email":"info@skanelas.se","website":"www.skanelas.se","latlng":"55.44325820000002,13.847597299999961","lat":"55.44325820000002","lng":"13.847597299999961"},{"id":"199","name":"L\u00e5shuset AB","license":"Licensnummer: 353","street":"Havsbadsv\u00e4gen 1","zipcode":"262 63 \u00c4NGELHOLM","city":"\u00c4NGELHOLM","phone":"TEL:0431-803 10","email":"info@lashuset.se","website":"www.lashuset.se","latlng":"56.248793,12.85962870000003","lat":"56.248793","lng":"12.85962870000003"},{"id":"200","name":"Axet L\u00e5sservice AB","license":"Licensnummer: 284","street":"Kungsgatan 21","zipcode":"702 11 \u00d6REBRO","city":"\u00d6REBRO","phone":"TEL:019-14 82 00","email":"info@axet-las.se","website":"www.axet-las.se","latlng":"59.26976010000002,15.21376829999997","lat":"59.26976010000002","lng":"15.21376829999997"},{"id":"201","name":"Certego AB (filial)","license":"Licensnummer: 121:1","street":"Elementv\u00e4gen 12","zipcode":"702 27 \u00d6REBRO","city":"\u00d6REBRO","phone":"TEL:019-10 54 10","email":"info.orebro@certego.se","website":"www.certego.se","latlng":"59.26042790000002,15.177660599999967","lat":"59.26042790000002","lng":"15.177660599999967"},{"id":"202","name":"L\u00e5s & S\u00e4kerhet i \u00d6rebro AB","license":"Licensnummer: 483","street":"St\u00e5ngj\u00e4rnsgatan 8","zipcode":"703 63 \u00d6REBRO","city":"\u00d6REBRO","phone":"TEL:019-10 28 15","email":"lassakerhet@lassakerhet.se","website":"www.lassakerhet.se","latlng":"59.29007650000001,15.205469799999946","lat":"59.29007650000001","lng":"15.205469799999946"},{"id":"203","name":"AB Norrskydd (filial)","license":"Licensnummer: 078:2","street":"Sj\u00f6gatan 1 A","zipcode":"891 60 \u00d6RNSK\u00d6LDSVIK","city":"\u00d6RNSK\u00d6LDSVIK","phone":"TEL:0660-141 30","email":"info@norrskydd.se","website":"www.norrskydd.se","latlng":"63.287480000000016,18.72832399999993","lat":"63.287480000000016","lng":"18.72832399999993"},{"id":"204","name":"\u00d6vik L\u00e5steknik AB","license":"Licensnummer: 516","street":"Maskingatan 2","zipcode":"891 38 \u00d6RNSK\u00d6LDSVIK","city":"\u00d6RNSK\u00d6LDSVIK","phone":"TEL:0660-29 69 00","email":"info@lasteknik.com","website":"www.lasteknik.com","latlng":"63.304798,18.72654990000001","lat":"63.304798","lng":"18.72654990000001"},{"id":"205","name":"G\u00e4rdin & Persson AB","license":"Licensnummer: 312","street":"Odenskogsv\u00e4gen 31-33","zipcode":"831 48 \u00d6STERSUND","city":"\u00d6STERSUND","phone":"TEL:063-14 99 00","email":"info@gardinpersson.se","website":"www.gardinpersson.se","latlng":"63.16674650000001,14.685817499999985","lat":"63.16674650000001","lng":"14.685817499999985"},{"id":"206","name":"G\u00e4rdin & Persson AB","license":"Licensnummer: 312","street":"Odenskogsv\u00e4gen 31-33","zipcode":"831 48 \u00d6STERSUND","city":"\u00d6STERSUND","phone":"TEL:063-14 99 00","email":"info@gardinpersson.se","website":"www.gardinpersson.se","latlng":"63.166746499999995,14.685817499999985","lat":"63.166746499999995","lng":"14.685817499999985"}]             